[
  {
    "name": "Eram Garden",
    "city": "Country : Iran" ,
    "location": {
      "latitude": 29.6359,
      "longitude": 52.5254
    }
  },

  {
    "name": "Golestan Palace",
    "city": "Country : Iran",
    "location": {
      "latitude": 35.6798,
      "longitude": 51.4205
    }
  },




  {
    "name": "Aswan",
    "city": "Country: Egypt",
    "location": {
      "latitude": 24.0889,
      "longitude": 32.8998
    }
  },
  {
    "name": "Abu Simbel",
    "city": "Country: Egypt",
    "location": {
      "latitude": 22.3460,
      "longitude": 31.6156
    }
  },





  {
    "name": " Addis Ababa",
    "city": "Country: Ethiopia",
    "location": {
      "latitude": 8.9806,
      "longitude": 38.7578
    }
  },
  {
    "name": "Bahir Dar ",
    "city": "Country: Ethiopia",
    "location": {
      "latitude": 11.5742,
      "longitude": 37.3614
    }
  },




  {
    "name": "Osaka Castle",
    "city": "Country: Japan",
    "location": {
      "latitude": 34.6873,
      "longitude": 135.5260
    }
  },
  {
    "name": "Yokohama Minatomirai",
    "city": "Country: Japan",
    "location": {
      "latitude": 35.4601,
      "longitude": 139.6325
    }
  },





  {
    "name": "Plaza Mayor",
    "city": "Country: Spain",
    "location": {
      "latitude": 40.4155,
      "longitude": 3.7074
    }
  },
  {
    "name": "Palacio Real",
    "city": "Country: Spain",
    "location": {
      "latitude": 40.4180,
      "longitude": 3.7143
    }
  },





  {
    "name": "Kizhi Island",
    "city": "Country: Russia",
    "location": {
      "latitude": 62.0833,
      "longitude": 35.2148
    }
  },
  {
    "name": "Hermitage Museum",
    "city": "Country: Russia",
    "location": {
      "latitude": 59.9398,
      "longitude": 30.3146
    }
  },





  {
    "name": "Igua√ßu Falls",
    "city": "Country: Brazil",
    "location": {
      "latitude": 25.6953,
      "longitude": 54.4367
    }
  },
  {
  "name": "Ipanema",
  "city": "Country: Brazil",
  "location": {
  "latitude": 22.9847,
  "longitude": 43.1986
}
  },






  {
    "name": "Ushuaia",
    "city": "Country: Argentina",
    "location": {
      "latitude": 54.8019,
      "longitude": 68.3030
    }
  },
  {
    "name": "Monte Fitz Roy",
    "city": "Country: Argentina",
    "location": {
      "latitude": 49.2712,
      "longitude": 73.0432
    }
  },





  {
    "name": "Niagara Falls",
    "city": "Country: Canada",
    "location": {
      "latitude": 62.83291,
      "longitude": -95.91332
    }
  },
  {
    "name": "Churchill",
    "city": "Country: Canada",
    "location": {
      "latitude": 58.7684,
      "longitude": 94.1650
    }
  },





  {
    "name": "Tulum",
    "city": "Country: Mexico",
    "location": {
      "latitude": 20.2114,
      "longitude": 87.4654
    }
  },
  {
    "name": "Zipolite",
    "city": "Country: Mexico",
    "location": {
      "latitude": 15.6643,
      "longitude": 96.5186
    }
  },






  {
    "name": "Lake Taupo",
    "city": "Country: NewZealand",
    "location": {
      "latitude": 38.7908,
      "longitude": 175.9041
    }
  },
  {
    "name": "Coromandel Peninsula",
    "city": "Country: NewZealand",
    "location": {
      "latitude": 36.8333,
      "longitude": 175.5833
    }
  },




  {
    "name": "Sydney Opera House",
    "city": "Country: Australia",
    "location": {
      "latitude": 33.8568,
      "longitude": 151.2153
    }
  },
  {
    "name": " Fraser Island",
    "city": "Country: Australia",
    "location": {
      "latitude": 25.2398,
      "longitude": 153.1325
    }
  }

]

